{
    "restaurants": [
        {
            "id": 1,
            "name": "McDonald's",
            "image": "https://toxicfreefuture.org/wp-content/uploads/2021/01/AdobeStock_279207035_Editorial_Use_Only-scaled.jpeg",
            "branches": [
                {
                    "id": 101,
                    "address": "Avenue Mohammed V, Casablanca, Morocco",
                    "country": "Morocco",
                    "city": "Casablanca",
                    "location": {
                        "Latitude": 33.595558, "Longitude": -7.61720
                    }
                },
                {
                    "id": 102,
                    "address": "Avenue Mohammed V, Casablanca",
                    "country": "Morocco",
                    "city": "Casablanca",
                    "location": {
                        "Latitude": 33.59948, "Longitude": -7.61278
                    }
                },
                {
                    "id": 103,
                    "address": "Casa Port, Casablanca",
                    "country": "Morocco",
                    "city": "Casablanca",
                    "location": {
                        "Latitude": 33.595558, "Longitude": -7.61720
                    }
                },
                {
                    "id": 104,
                    "address": "Bd Abou Chouaib Doukkali, Casablanca",
                    "country": "Morocco",
                    "city": "Casablanca",
                    "location": {
                        "Latitude": 33.56386, "Longitude": -7.59401
                    }
                },
                {
                    "id": 105,
                    "address": "Av. 2 Mars, Casablanca 20250",
                    "country": "Morocco",
                    "city": "Casablanca",
                    "location": {
                        "Latitude": 33.57637, "Longitude": -7.61550
                    }
                },
                {
                    "id": 106,
                    "address": "Centre Commercial Tachfine, Bd Ibn Tachfine, Casablanca",
                    "country": "Morocco",
                    "city": "Casablanca",
                    "location": {
                        "Latitude": 33.58699, "Longitude": -7.59267
                    }
                },
                {
                    "id": 107,
                    "address": "53, rond Rond-point Mers Sultan, Place Mers Sultan, Casablanca 20250",
                    "country": "Morocco",
                    "city": "Casablanca",
                    "location": {
                        "Latitude": 33.58956, "Longitude": -7.61829
                    }
                },
                {
                    "id": 108,
                    "address": "J82Q+F8J, Boulevard de la Corniche, Casablanca",
                    "country": "Morocco",
                    "city": "Casablanca",
                    "location": {
                        "Latitude": 33.60257, "Longitude": -7.66148
                    }
                },
                {
                    "id": 109,
                    "address": "Angle Bd Modibo Keita et Allée de l'Aude, Av. de l'Hermitage, Casablanca",
                    "country": "Morocco",
                    "city": "Casablanca",
                    "location": {
                        "Latitude": 33.58699, "Longitude": -7.59267
                    }
                }
            ]
        },
        {
            "id": 2,
            "name": "Pizza Hut",
            "image": "https://a.mktgcdn.com/p/d9AXTJEWMZ156q11dLLVRHsmufNu0K-ng4JYb_4WwRI/4500x3381.jpg",
            "address": "Boulevard Hassan II, Marrakech, Morocco"
        },
        {
            "id": 3,
            "name": "KFC",
            "image": "https://sela.ma/temara/wp-content/uploads/sites/8/2023/12/97e6648b3593c29cb4a6335f976e6d84.jpeg",
            "address": "Rue de Fès, Rabat, Morocco"
        },
        {
            "id": 4,
            "name": "Burger King",
            "image": "https://www.allrecipes.com/thmb/xVGw1xqe1jDcc9jYmNZkY621atQ=/1500x0/filters:no_upscale():max_bytes(150000):strip_icc()/ar-burger-king-getty-4x3-2-25772f696b734be5b78cb73cc4529ec7.jpg",
            "address": "Corniche Ain Diab, Casablanca, Morocco"
        },
        {
            "id": 5,
            "name": "Domino's Pizza",
            "image": "https://www.nomadia-group.com/wp-content/uploads/2022/09/Hero-DOMINOSPIZZA-success-story-success-story-1.png",
            "address": "Avenue Al Massira Al Khadra, Agadir, Morocco"
        },
        {
            "id": 6,
            "name": "Chrono Pizza",
            "image": "https://img.restaurantguru.com/w550/h367/rf75-Chrono-Pizza-emblem-2021-09-1.jpg",
            "address": "Avenue Moulay Rachid, Tangier, Morocco"
        },
        {
            "id": 7,
            "name": "Be Work",
            "image": "https://www.moroccomall.ma/images/logos/restaurants/BEWOK-Moroccomall-300x300.jpg",
            "address": "Place Al Amal, Oujda, Morocco"
        },
        {
            "id": 8,
            "name": "Tacos de Lyon",
            "image": "https://aeriamall.com/backend/uploads/TACOS_4f3bb6d0b0.png",
            "address": "Boulevard Mohammed VI, Fes, Morocco"
        },
        {
            "id": 9,
            "name": "Pizza Hub",
            "image": "https://www.kylescreative.ca/assets/img/Pizzahub1.jpg",
            "address": "Avenue des FAR, Meknes, Morocco"
        },
        {
            "id": 10,
            "name": "Taco Bell",
            "image": "https://assets.turbologo.com/blog/fr/2020/02/19133812/Taco-Bell.png",
            "address": "Avenue Mohammed VI, Casablanca, Morocco"
        },
        {
            "id": 11,
            "name": "Quick",
            "image": "https://static.actu.fr/uploads/2021/08/adobestock-448927659-editorial-use-only.jpeg",
            "address": "Boulevard Zerktouni, Marrakech, Morocco"
        },
        {
            "id": 12,
            "name": "Big M",
            "image": "https://bigm-burger.fr/wp-content/uploads/agile-store-locator/Logo/sans-titre-1-628f96bd2b4c8.jpg",
            "address": "Corniche Ain Diab, Casablanca, Morocco"
        }
    ]
}
